{"type":"FeatureCollection","features":[{"type":"Feature","geometry":{"type":"Point","coordinates":[7.6,49.437]},"properties":{"name":"Ramstein Air Base","type":"air","typeLabel":"Air base","op":"US","opName":"United States","host":"DE","hostName":"Germany","kind":"foreign","garrison":"9,000 personnel","units":"86th Airlift Wing · USAFE-AFAFRICA HQ","basedAircraft":"C-130J, C-21, C-37, C-40"}},{"type":"Feature","geometry":{"type":"Point","coordinates":[6.6925,49.9727]},"properties":{"name":"Spangdahlem Air Base","type":"air","typeLabel":"Air base","op":"US","opName":"United States","host":"DE","hostName":"Germany","kind":"foreign"}},{"type":"Feature","geometry":{"type":"Point","coordinates":[9.234,48.728]},"properties":{"name":"USAG Stuttgart (EUCOM/AFRICOM HQ)","type":"hq","typeLabel":"HQ / command","op":"US","opName":"United States","host":"DE","hostName":"Germany","kind":"foreign"}},{"type":"Feature","geometry":{"type":"Point","coordinates":[11.94,49.7]},"properties":{"name":"Grafenwöhr Training Area","type":"training","typeLabel":"Training facility","op":"US","opName":"United States","host":"DE","hostName":"Germany","kind":"foreign"}},{"type":"Feature","geometry":{"type":"Point","coordinates":[0.561,52.409]},"properties":{"name":"RAF Lakenheath","type":"air","typeLabel":"Air base","op":"US","opName":"United States","host":"GB","hostName":"United Kingdom","kind":"foreign","units":"48th Fighter Wing","basedAircraft":"F-15E, F-35A"}},{"type":"Feature","geometry":{"type":"Point","coordinates":[0.486,52.361]},"properties":{"name":"RAF Mildenhall","type":"air","typeLabel":"Air base","op":"US","opName":"United States","host":"GB","hostName":"United Kingdom","kind":"foreign","units":"100th ARW · 352d SOW","basedAircraft":"KC-135, CV-22, MC-130"}},{"type":"Feature","geometry":{"type":"Point","coordinates":[-1.79,51.682]},"properties":{"name":"RAF Fairford","type":"air","typeLabel":"Air base","op":"US","opName":"United States","host":"GB","hostName":"United Kingdom","kind":"foreign"}},{"type":"Feature","geometry":{"type":"Point","coordinates":[12.596,46.031]},"properties":{"name":"Aviano Air Base","type":"air","typeLabel":"Air base","op":"US","opName":"United States","host":"IT","hostName":"Italy","kind":"foreign","units":"31st Fighter Wing","basedAircraft":"F-16C/D"}},{"type":"Feature","geometry":{"type":"Point","coordinates":[14.922,37.401]},"properties":{"name":"NAS Sigonella","type":"naval","typeLabel":"Naval base","op":"US","opName":"United States","host":"IT","hostName":"Italy","kind":"foreign","units":"US Navy / NATO ISR hub","basedAircraft":"P-8, MQ-4C, MQ-9"}},{"type":"Feature","geometry":{"type":"Point","coordinates":[11.553,45.561]},"properties":{"name":"Caserma Ederle (Vicenza)","type":"hq","typeLabel":"HQ / command","op":"US","opName":"United States","host":"IT","hostName":"Italy","kind":"foreign"}},{"type":"Feature","geometry":{"type":"Point","coordinates":[10.45,43.66]},"properties":{"name":"Camp Darby","type":"logistics","typeLabel":"Logistics hub","op":"US","opName":"United States","host":"IT","hostName":"Italy","kind":"foreign"}},{"type":"Feature","geometry":{"type":"Point","coordinates":[-6.349,36.645]},"properties":{"name":"Naval Station Rota","type":"naval","typeLabel":"Naval base","op":"US","opName":"United States","host":"ES","hostName":"Spain","kind":"foreign","units":"US Navy / NAVFAC","basedAircraft":"4× Arleigh Burke DDGs, P-8"}},{"type":"Feature","geometry":{"type":"Point","coordinates":[-5.617,37.175]},"properties":{"name":"Morón Air Base","type":"air","typeLabel":"Air base","op":"US","opName":"United States","host":"ES","hostName":"Spain","kind":"foreign"}},{"type":"Feature","geometry":{"type":"Point","coordinates":[35.426,37.002]},"properties":{"name":"Incirlik Air Base","type":"air","typeLabel":"Air base","op":"US","opName":"United States","host":"TR","hostName":"Turkey","kind":"foreign","units":"39th Air Base Wing","basedAircraft":"KC-135 (rotational)"}},{"type":"Feature","geometry":{"type":"Point","coordinates":[24.149,35.533]},"properties":{"name":"NSA Souda Bay","type":"naval","typeLabel":"Naval base","op":"US","opName":"United States","host":"GR","hostName":"Greece","kind":"foreign"}},{"type":"Feature","geometry":{"type":"Point","coordinates":[-68.703,76.531]},"properties":{"name":"Pituffik Space Base (Thule)","type":"space","typeLabel":"Space / missile-warning","op":"US","opName":"United States","host":"GL","hostName":"Greenland","kind":"foreign","units":"Space Base Delta · missile warning","basedAircraft":"BMEWS radar; no based aircraft"}},{"type":"Feature","geometry":{"type":"Point","coordinates":[21.283,42.366]},"properties":{"name":"Camp Bondsteel","type":"fob","typeLabel":"Forward operating base","op":"US","opName":"United States","host":"XK","hostName":"Kosovo","kind":"foreign"}},{"type":"Feature","geometry":{"type":"Point","coordinates":[3.831,50.575]},"properties":{"name":"SHAPE / Chièvres AB","type":"hq","typeLabel":"HQ / command","op":"US","opName":"United States","host":"BE","hostName":"Belgium","kind":"foreign"}},{"type":"Feature","geometry":{"type":"Point","coordinates":[51.315,25.117]},"properties":{"name":"Al Udeid Air Base","type":"air","typeLabel":"Air base","op":"US","opName":"United States","host":"QA","hostName":"Qatar","kind":"foreign","garrison":"8,000–10,000","units":"379th Air Expeditionary Wing · CENTCOM fwd HQ","basedAircraft":"KC-135, E-8, rotational bombers"}},{"type":"Feature","geometry":{"type":"Point","coordinates":[54.547,24.248]},"properties":{"name":"Al Dhafra Air Base","type":"air","typeLabel":"Air base","op":"US","opName":"United States","host":"AE","hostName":"UAE","kind":"foreign"}},{"type":"Feature","geometry":{"type":"Point","coordinates":[47.52,29.347]},"properties":{"name":"Ali Al Salem Air Base","type":"air","typeLabel":"Air base","op":"US","opName":"United States","host":"KW","hostName":"Kuwait","kind":"foreign"}},{"type":"Feature","geometry":{"type":"Point","coordinates":[48.158,28.87]},"properties":{"name":"Camp Arifjan","type":"logistics","typeLabel":"Logistics hub","op":"US","opName":"United States","host":"KW","hostName":"Kuwait","kind":"foreign"}},{"type":"Feature","geometry":{"type":"Point","coordinates":[50.612,26.211]},"properties":{"name":"NSA Bahrain (US 5th Fleet)","type":"naval","typeLabel":"Naval base","op":"US","opName":"United States","host":"BH","hostName":"Bahrain","kind":"foreign","units":"US 5th Fleet / NAVCENT HQ","basedAircraft":"patrol craft, MH-60"}},{"type":"Feature","geometry":{"type":"Point","coordinates":[43.146,11.547]},"properties":{"name":"Camp Lemonnier","type":"fob","typeLabel":"Forward operating base","op":"US","opName":"United States","host":"DJ","hostName":"Djibouti","kind":"foreign","garrison":"4,000","units":"CJTF-Horn of Africa","basedAircraft":"P-8, ISR drones (rotational)"}},{"type":"Feature","geometry":{"type":"Point","coordinates":[127.03,36.964]},"properties":{"name":"Camp Humphreys (USFK HQ)","type":"hq","typeLabel":"HQ / command","op":"US","opName":"United States","host":"KR","hostName":"South Korea","kind":"foreign","garrison":"36,000 (largest US base abroad)","units":"Eighth Army · USFK HQ","basedAircraft":"AH-64, CH-47, UH-60"}},{"type":"Feature","geometry":{"type":"Point","coordinates":[127.03,37.09]},"properties":{"name":"Osan Air Base","type":"air","typeLabel":"Air base","op":"US","opName":"United States","host":"KR","hostName":"South Korea","kind":"foreign","units":"51st Fighter Wing","basedAircraft":"F-16, A-10, U-2"}},{"type":"Feature","geometry":{"type":"Point","coordinates":[126.616,35.903]},"properties":{"name":"Kunsan Air Base","type":"air","typeLabel":"Air base","op":"US","opName":"United States","host":"KR","hostName":"South Korea","kind":"foreign","units":"8th Fighter Wing","basedAircraft":"F-16C/D"}},{"type":"Feature","geometry":{"type":"Point","coordinates":[127.767,26.356]},"properties":{"name":"Kadena Air Base","type":"air","typeLabel":"Air base","op":"US","opName":"United States","host":"JP","hostName":"Japan","kind":"foreign","garrison":"18,000 (base pop.)","units":"18th Wing","basedAircraft":"F-15 (rotational), KC-135, E-3, RC-135"}},{"type":"Feature","geometry":{"type":"Point","coordinates":[127.755,26.272]},"properties":{"name":"MCAS Futenma","type":"air","typeLabel":"Air base","op":"US","opName":"United States","host":"JP","hostName":"Japan","kind":"foreign"}},{"type":"Feature","geometry":{"type":"Point","coordinates":[139.348,35.748]},"properties":{"name":"Yokota Air Base","type":"air","typeLabel":"Air base","op":"US","opName":"United States","host":"JP","hostName":"Japan","kind":"foreign"}},{"type":"Feature","geometry":{"type":"Point","coordinates":[141.368,40.703]},"properties":{"name":"Misawa Air Base","type":"air","typeLabel":"Air base","op":"US","opName":"United States","host":"JP","hostName":"Japan","kind":"foreign","units":"35th Fighter Wing","basedAircraft":"F-16CM, P-8 (US/JMSDF)"}},{"type":"Feature","geometry":{"type":"Point","coordinates":[139.662,35.293]},"properties":{"name":"Fleet Activities Yokosuka","type":"naval","typeLabel":"Naval base","op":"US","opName":"United States","host":"JP","hostName":"Japan","kind":"foreign","garrison":"24,000 incl. dependents","units":"US 7th Fleet HQ","basedAircraft":"carrier strike group homeport"}},{"type":"Feature","geometry":{"type":"Point","coordinates":[129.715,33.16]},"properties":{"name":"Sasebo Naval Base","type":"naval","typeLabel":"Naval base","op":"US","opName":"United States","host":"JP","hostName":"Japan","kind":"foreign"}},{"type":"Feature","geometry":{"type":"Point","coordinates":[132.236,34.146]},"properties":{"name":"MCAS Iwakuni","type":"air","typeLabel":"Air base","op":"US","opName":"United States","host":"JP","hostName":"Japan","kind":"foreign"}},{"type":"Feature","geometry":{"type":"Point","coordinates":[72.411,-7.313]},"properties":{"name":"Naval Support Facility Diego Garcia","type":"naval","typeLabel":"Naval base","op":"US","opName":"United States","host":"IO","hostName":"British Indian Ocean Terr.","kind":"foreign","units":"Navy Support Facility","basedAircraft":"rotational B-52/B-2, P-8, KC-135"}},{"type":"Feature","geometry":{"type":"Point","coordinates":[133.737,-23.799]},"properties":{"name":"Pine Gap (joint SIGINT)","type":"sigint","typeLabel":"SIGINT / listening","op":"US","opName":"United States","host":"AU","hostName":"Australia","kind":"foreign"}},{"type":"Feature","geometry":{"type":"Point","coordinates":[114.166,-21.816]},"properties":{"name":"NCS Harold E. Holt","type":"sigint","typeLabel":"SIGINT / listening","op":"US","opName":"United States","host":"AU","hostName":"Australia","kind":"foreign"}},{"type":"Feature","geometry":{"type":"Point","coordinates":[-87.621,14.382]},"properties":{"name":"Soto Cano Air Base","type":"air","typeLabel":"Air base","op":"US","opName":"United States","host":"HN","hostName":"Honduras","kind":"foreign"}},{"type":"Feature","geometry":{"type":"Point","coordinates":[-75.14,19.902]},"properties":{"name":"Guantanamo Bay Naval Station","type":"naval","typeLabel":"Naval base","op":"US","opName":"United States","host":"CU","hostName":"Cuba","kind":"foreign"}},{"type":"Feature","geometry":{"type":"Point","coordinates":[35.948,35.401]},"properties":{"name":"Khmeimim Air Base","type":"air","typeLabel":"Air base","op":"RU","opName":"Russia","host":"SY","hostName":"Syria","kind":"foreign","units":"Russian Aerospace Forces","basedAircraft":"Su-34, Su-35, Su-24, Mi-8/24"}},{"type":"Feature","geometry":{"type":"Point","coordinates":[35.87,34.895]},"properties":{"name":"Tartus Naval Base","type":"naval","typeLabel":"Naval base","op":"RU","opName":"Russia","host":"SY","hostName":"Syria","kind":"foreign","units":"Russian Navy logistics point","basedAircraft":"naval combatants (rotational)"}},{"type":"Feature","geometry":{"type":"Point","coordinates":[43.84,40.787]},"properties":{"name":"102nd Military Base Gyumri","type":"fob","typeLabel":"Forward operating base","op":"RU","opName":"Russia","host":"AM","hostName":"Armenia","kind":"foreign"}},{"type":"Feature","geometry":{"type":"Point","coordinates":[74.846,42.853]},"properties":{"name":"Kant Air Base","type":"air","typeLabel":"Air base","op":"RU","opName":"Russia","host":"KG","hostName":"Kyrgyzstan","kind":"foreign"}},{"type":"Feature","geometry":{"type":"Point","coordinates":[68.78,38.55]},"properties":{"name":"201st Military Base","type":"fob","typeLabel":"Forward operating base","op":"RU","opName":"Russia","host":"TJ","hostName":"Tajikistan","kind":"foreign"}},{"type":"Feature","geometry":{"type":"Point","coordinates":[63.342,45.965]},"properties":{"name":"Baikonur Cosmodrome (leased)","type":"space","typeLabel":"Space / missile-warning","op":"RU","opName":"Russia","host":"KZ","hostName":"Kazakhstan","kind":"foreign"}},{"type":"Feature","geometry":{"type":"Point","coordinates":[29.48,47.2]},"properties":{"name":"Operational Group of Russian Forces","type":"fob","typeLabel":"Forward operating base","op":"RU","opName":"Russia","host":"MD","hostName":"Moldova (Transnistria)","kind":"foreign"}},{"type":"Feature","geometry":{"type":"Point","coordinates":[33.53,44.62]},"properties":{"name":"Black Sea Fleet, Sevastopol","type":"naval","typeLabel":"Naval base","op":"RU","opName":"Russia","host":"UA","hostName":"Ukraine (Crimea)","kind":"foreign"}},{"type":"Feature","geometry":{"type":"Point","coordinates":[43.159,11.547]},"properties":{"name":"Base aérienne 188 Djibouti","type":"air","typeLabel":"Air base","op":"FR","opName":"France","host":"DJ","hostName":"Djibouti","kind":"foreign","units":"Forces françaises à Djibouti","basedAircraft":"Mirage 2000 (historically)"}},{"type":"Feature","geometry":{"type":"Point","coordinates":[54.55,24.5]},"properties":{"name":"Forces françaises (Camp de la Paix)","type":"naval","typeLabel":"Naval base","op":"FR","opName":"France","host":"AE","hostName":"UAE","kind":"foreign"}},{"type":"Feature","geometry":{"type":"Point","coordinates":[-3.93,5.26]},"properties":{"name":"Camp de Port-Bouët","type":"fob","typeLabel":"Forward operating base","op":"FR","opName":"France","host":"CI","hostName":"Côte d'Ivoire","kind":"foreign"}},{"type":"Feature","geometry":{"type":"Point","coordinates":[15.034,12.131]},"properties":{"name":"Base Kosseï N'Djamena","type":"air","typeLabel":"Air base","op":"FR","opName":"France","host":"TD","hostName":"Chad","kind":"foreign"}},{"type":"Feature","geometry":{"type":"Point","coordinates":[-17.49,14.74]},"properties":{"name":"Éléments français au Sénégal","type":"fob","typeLabel":"Forward operating base","op":"FR","opName":"France","host":"SN","hostName":"Senegal","kind":"foreign"}},{"type":"Feature","geometry":{"type":"Point","coordinates":[9.41,0.46]},"properties":{"name":"Camp De Gaulle, Libreville","type":"fob","typeLabel":"Forward operating base","op":"FR","opName":"France","host":"GA","hostName":"Gabon","kind":"foreign"}},{"type":"Feature","geometry":{"type":"Point","coordinates":[32.987,34.59]},"properties":{"name":"RAF Akrotiri","type":"air","typeLabel":"Air base","op":"GB","opName":"United Kingdom","host":"CY","hostName":"Cyprus","kind":"foreign","units":"Sovereign Base · 84 Sqn","basedAircraft":"Typhoon (rotational), helicopters"}},{"type":"Feature","geometry":{"type":"Point","coordinates":[33.7,34.99]},"properties":{"name":"Dhekelia Garrison","type":"fob","typeLabel":"Forward operating base","op":"GB","opName":"United Kingdom","host":"CY","hostName":"Cyprus","kind":"foreign"}},{"type":"Feature","geometry":{"type":"Point","coordinates":[50.61,26.21]},"properties":{"name":"UK Naval Support Facility (HMS Juffair)","type":"naval","typeLabel":"Naval base","op":"GB","opName":"United Kingdom","host":"BH","hostName":"Bahrain","kind":"foreign"}},{"type":"Feature","geometry":{"type":"Point","coordinates":[37.1,-0.05]},"properties":{"name":"BATUK (British Army Training Unit)","type":"training","typeLabel":"Training facility","op":"GB","opName":"United Kingdom","host":"KE","hostName":"Kenya","kind":"foreign"}},{"type":"Feature","geometry":{"type":"Point","coordinates":[114.93,4.92]},"properties":{"name":"British Forces Brunei Garrison","type":"fob","typeLabel":"Forward operating base","op":"GB","opName":"United Kingdom","host":"BN","hostName":"Brunei","kind":"foreign"}},{"type":"Feature","geometry":{"type":"Point","coordinates":[57.7,19.67]},"properties":{"name":"UK Joint Logistics Support Base Duqm","type":"naval","typeLabel":"Naval base","op":"GB","opName":"United Kingdom","host":"OM","hostName":"Oman","kind":"foreign"}},{"type":"Feature","geometry":{"type":"Point","coordinates":[43.07,11.59]},"properties":{"name":"PLA Support Base Djibouti","type":"naval","typeLabel":"Naval base","op":"CN","opName":"China","host":"DJ","hostName":"Djibouti","kind":"foreign","garrison":"1,000–2,000","units":"PLA Navy","basedAircraft":"naval logistics"}},{"type":"Feature","geometry":{"type":"Point","coordinates":[103.62,10.51]},"properties":{"name":"Ream Naval Base (PLA access)","type":"naval","typeLabel":"Naval base","op":"CN","opName":"China","host":"KH","hostName":"Cambodia","kind":"foreign"}},{"type":"Feature","geometry":{"type":"Point","coordinates":[45.3,2.01]},"properties":{"name":"Camp TURKSOM, Mogadishu","type":"training","typeLabel":"Training facility","op":"TR","opName":"Turkey","host":"SO","hostName":"Somalia","kind":"foreign"}},{"type":"Feature","geometry":{"type":"Point","coordinates":[51.49,25.32]},"properties":{"name":"Qatar-Turkey Combined Joint Force Cmd","type":"fob","typeLabel":"Forward operating base","op":"TR","opName":"Turkey","host":"QA","hostName":"Qatar","kind":"foreign"}},{"type":"Feature","geometry":{"type":"Point","coordinates":[11.22,32]},"properties":{"name":"Al-Watiya Air Base","type":"air","typeLabel":"Air base","op":"TR","opName":"Turkey","host":"LY","hostName":"Libya","kind":"foreign"}},{"type":"Feature","geometry":{"type":"Point","coordinates":[33.36,35.18]},"properties":{"name":"Turkish Forces, Northern Cyprus","type":"fob","typeLabel":"Forward operating base","op":"TR","opName":"Turkey","host":"CY","hostName":"Cyprus","kind":"foreign"}},{"type":"Feature","geometry":{"type":"Point","coordinates":[42.65,13.07]},"properties":{"name":"Assab Base","type":"air","typeLabel":"Air base","op":"AE","opName":"UAE","host":"ER","hostName":"Eritrea","kind":"foreign"}},{"type":"Feature","geometry":{"type":"Point","coordinates":[44.94,10.39]},"properties":{"name":"Berbera Base","type":"air","typeLabel":"Air base","op":"AE","opName":"UAE","host":"SO","hostName":"Somalia (Somaliland)","kind":"foreign"}},{"type":"Feature","geometry":{"type":"Point","coordinates":[68.81,38.54]},"properties":{"name":"Ayni / Farkhor Air Base","type":"air","typeLabel":"Air base","op":"IN","opName":"India","host":"TJ","hostName":"Tajikistan","kind":"foreign"}},{"type":"Feature","geometry":{"type":"Point","coordinates":[56.61,-10.42]},"properties":{"name":"INS overseas facility, Agalega","type":"naval","typeLabel":"Naval base","op":"IN","opName":"India","host":"MU","hostName":"Mauritius","kind":"foreign"}},{"type":"Feature","geometry":{"type":"Point","coordinates":[37.63,34.52]},"properties":{"name":"Tiyas (T-4) Air Base (IRGC presence)","type":"air","typeLabel":"Air base","op":"IR","opName":"Iran","host":"SY","hostName":"Syria","kind":"foreign"}}]}