{
  "type": "FeatureCollection",
  "note": "Curated set of notable, publicly documented military installations, rated by strategic importance (imp 1-5). Approximate coordinates. Always visible at all zooms; OpenStreetMap adds exhaustive local detail when you zoom in.",
  "features": [
    { "type": "Feature", "properties": { "name": "The Pentagon", "country": "USA", "kind": "command", "imp": 5 }, "geometry": { "type": "Point", "coordinates": [-77.0563, 38.8719] } },
    { "type": "Feature", "properties": { "name": "Cheyenne Mtn / NORAD", "country": "USA", "kind": "command", "imp": 5 }, "geometry": { "type": "Point", "coordinates": [-104.846, 38.744] } },
    { "type": "Feature", "properties": { "name": "Offutt AFB (STRATCOM)", "country": "USA", "kind": "command", "imp": 5 }, "geometry": { "type": "Point", "coordinates": [-95.9145, 41.1186] } },
    { "type": "Feature", "properties": { "name": "Naval Station Norfolk", "country": "USA", "kind": "naval", "imp": 5 }, "geometry": { "type": "Point", "coordinates": [-76.329, 36.946] } },
    { "type": "Feature", "properties": { "name": "Naval Base San Diego", "country": "USA", "kind": "naval", "imp": 4 }, "geometry": { "type": "Point", "coordinates": [-117.13, 32.684] } },
    { "type": "Feature", "properties": { "name": "JB Pearl Harbor-Hickam", "country": "USA", "kind": "naval", "imp": 5 }, "geometry": { "type": "Point", "coordinates": [-157.962, 21.349] } },
    { "type": "Feature", "properties": { "name": "NB Kitsap-Bangor (SSBN)", "country": "USA", "kind": "naval", "imp": 5 }, "geometry": { "type": "Point", "coordinates": [-122.7095, 47.7237] } },
    { "type": "Feature", "properties": { "name": "NSB Kings Bay (SSBN)", "country": "USA", "kind": "naval", "imp": 5 }, "geometry": { "type": "Point", "coordinates": [-81.5179, 30.7969] } },
    { "type": "Feature", "properties": { "name": "Edwards AFB", "country": "USA", "kind": "airbase", "imp": 4 }, "geometry": { "type": "Point", "coordinates": [-117.883, 34.905] } },
    { "type": "Feature", "properties": { "name": "Nellis AFB", "country": "USA", "kind": "airbase", "imp": 4 }, "geometry": { "type": "Point", "coordinates": [-115.033, 36.236] } },
    { "type": "Feature", "properties": { "name": "Groom Lake (Area 51)", "country": "USA", "kind": "airbase", "imp": 4 }, "geometry": { "type": "Point", "coordinates": [-115.806, 37.235] } },
    { "type": "Feature", "properties": { "name": "Fort Liberty (Bragg)", "country": "USA", "kind": "army", "imp": 5 }, "geometry": { "type": "Point", "coordinates": [-79.006, 35.139] } },
    { "type": "Feature", "properties": { "name": "Fort Cavazos (Hood)", "country": "USA", "kind": "army", "imp": 4 }, "geometry": { "type": "Point", "coordinates": [-97.78, 31.13] } },
    { "type": "Feature", "properties": { "name": "Whiteman AFB (B-2)", "country": "USA", "kind": "airbase", "imp": 5 }, "geometry": { "type": "Point", "coordinates": [-93.548, 38.73] } },
    { "type": "Feature", "properties": { "name": "Barksdale AFB (B-52)", "country": "USA", "kind": "airbase", "imp": 4 }, "geometry": { "type": "Point", "coordinates": [-93.603, 32.502] } },
    { "type": "Feature", "properties": { "name": "Minot AFB (ICBM/B-52)", "country": "USA", "kind": "airbase", "imp": 5 }, "geometry": { "type": "Point", "coordinates": [-101.358, 48.416] } },
    { "type": "Feature", "properties": { "name": "F.E. Warren AFB (ICBM)", "country": "USA", "kind": "airbase", "imp": 4 }, "geometry": { "type": "Point", "coordinates": [-104.866, 41.155] } },
    { "type": "Feature", "properties": { "name": "Vandenberg SFB", "country": "USA", "kind": "space", "imp": 4 }, "geometry": { "type": "Point", "coordinates": [-120.566, 34.742] } },
    { "type": "Feature", "properties": { "name": "Cape Canaveral SFS", "country": "USA", "kind": "space", "imp": 4 }, "geometry": { "type": "Point", "coordinates": [-80.577, 28.488] } },
    { "type": "Feature", "properties": { "name": "MCB Camp Pendleton", "country": "USA", "kind": "army", "imp": 3 }, "geometry": { "type": "Point", "coordinates": [-117.36, 33.39] } },
    { "type": "Feature", "properties": { "name": "JB Lewis-McChord", "country": "USA", "kind": "army", "imp": 3 }, "geometry": { "type": "Point", "coordinates": [-122.58, 47.11] } },
    { "type": "Feature", "properties": { "name": "NS Guantanamo Bay", "country": "USA", "kind": "naval", "imp": 3 }, "geometry": { "type": "Point", "coordinates": [-75.207, 19.906] } },
    { "type": "Feature", "properties": { "name": "USAF Academy", "country": "USA", "kind": "training", "imp": 2 }, "geometry": { "type": "Point", "coordinates": [-104.86, 38.99] } },
    { "type": "Feature", "properties": { "name": "Ramstein AB", "country": "Germany (US)", "kind": "airbase", "imp": 5 }, "geometry": { "type": "Point", "coordinates": [7.6, 49.44] } },
    { "type": "Feature", "properties": { "name": "Spangdahlem AB", "country": "Germany (US)", "kind": "airbase", "imp": 3 }, "geometry": { "type": "Point", "coordinates": [6.69, 49.97] } },
    { "type": "Feature", "properties": { "name": "USAG Grafenwoehr", "country": "Germany (US)", "kind": "army", "imp": 3 }, "geometry": { "type": "Point", "coordinates": [11.94, 49.7] } },
    { "type": "Feature", "properties": { "name": "RAF Lakenheath", "country": "UK (US)", "kind": "airbase", "imp": 4 }, "geometry": { "type": "Point", "coordinates": [0.561, 52.409] } },
    { "type": "Feature", "properties": { "name": "RAF Mildenhall", "country": "UK (US)", "kind": "airbase", "imp": 3 }, "geometry": { "type": "Point", "coordinates": [0.486, 52.361] } },
    { "type": "Feature", "properties": { "name": "NS Rota", "country": "Spain (US)", "kind": "naval", "imp": 4 }, "geometry": { "type": "Point", "coordinates": [-6.349, 36.645] } },
    { "type": "Feature", "properties": { "name": "Aviano AB", "country": "Italy (US)", "kind": "airbase", "imp": 4 }, "geometry": { "type": "Point", "coordinates": [12.596, 46.031] } },
    { "type": "Feature", "properties": { "name": "NAS Sigonella", "country": "Italy (US)", "kind": "naval", "imp": 4 }, "geometry": { "type": "Point", "coordinates": [14.922, 37.401] } },
    { "type": "Feature", "properties": { "name": "Souda Bay", "country": "Greece (US)", "kind": "naval", "imp": 3 }, "geometry": { "type": "Point", "coordinates": [24.15, 35.53] } },
    { "type": "Feature", "properties": { "name": "Incirlik AB", "country": "Turkey (US)", "kind": "airbase", "imp": 4 }, "geometry": { "type": "Point", "coordinates": [35.426, 37.002] } },
    { "type": "Feature", "properties": { "name": "Pituffik (Thule)", "country": "Greenland (US)", "kind": "airbase", "imp": 4 }, "geometry": { "type": "Point", "coordinates": [-68.703, 76.531] } },
    { "type": "Feature", "properties": { "name": "Camp Lemonnier", "country": "Djibouti (US)", "kind": "joint", "imp": 5 }, "geometry": { "type": "Point", "coordinates": [43.159, 11.547] } },
    { "type": "Feature", "properties": { "name": "Al Udeid AB", "country": "Qatar (US)", "kind": "airbase", "imp": 5 }, "geometry": { "type": "Point", "coordinates": [51.315, 25.117] } },
    { "type": "Feature", "properties": { "name": "Al Dhafra AB", "country": "UAE (US)", "kind": "airbase", "imp": 4 }, "geometry": { "type": "Point", "coordinates": [54.547, 24.248] } },
    { "type": "Feature", "properties": { "name": "NSA Bahrain (5th Fleet)", "country": "Bahrain (US)", "kind": "naval", "imp": 5 }, "geometry": { "type": "Point", "coordinates": [50.609, 26.209] } },
    { "type": "Feature", "properties": { "name": "Camp Arifjan", "country": "Kuwait (US)", "kind": "army", "imp": 3 }, "geometry": { "type": "Point", "coordinates": [48.16, 28.88] } },
    { "type": "Feature", "properties": { "name": "Kadena AB", "country": "Japan (US)", "kind": "airbase", "imp": 5 }, "geometry": { "type": "Point", "coordinates": [127.769, 26.352] } },
    { "type": "Feature", "properties": { "name": "Yokosuka NB (7th Fleet)", "country": "Japan (US)", "kind": "naval", "imp": 5 }, "geometry": { "type": "Point", "coordinates": [139.67, 35.293] } },
    { "type": "Feature", "properties": { "name": "Misawa AB", "country": "Japan (US)", "kind": "airbase", "imp": 3 }, "geometry": { "type": "Point", "coordinates": [141.368, 40.703] } },
    { "type": "Feature", "properties": { "name": "Osan AB", "country": "S.Korea (US)", "kind": "airbase", "imp": 4 }, "geometry": { "type": "Point", "coordinates": [127.03, 37.09] } },
    { "type": "Feature", "properties": { "name": "Camp Humphreys", "country": "S.Korea (US)", "kind": "army", "imp": 5 }, "geometry": { "type": "Point", "coordinates": [127.021, 36.966] } },
    { "type": "Feature", "properties": { "name": "Andersen AFB (Guam)", "country": "Guam (US)", "kind": "airbase", "imp": 5 }, "geometry": { "type": "Point", "coordinates": [144.924, 13.584] } },
    { "type": "Feature", "properties": { "name": "Naval Base Guam (Apra)", "country": "Guam (US)", "kind": "naval", "imp": 4 }, "geometry": { "type": "Point", "coordinates": [144.655, 13.443] } },
    { "type": "Feature", "properties": { "name": "Diego Garcia", "country": "BIOT (US/UK)", "kind": "naval", "imp": 5 }, "geometry": { "type": "Point", "coordinates": [72.411, -7.313] } },
    { "type": "Feature", "properties": { "name": "HMNB Clyde (Faslane, SSBN)", "country": "UK", "kind": "naval", "imp": 5 }, "geometry": { "type": "Point", "coordinates": [-4.823, 56.064] } },
    { "type": "Feature", "properties": { "name": "HMNB Portsmouth", "country": "UK", "kind": "naval", "imp": 4 }, "geometry": { "type": "Point", "coordinates": [-1.103, 50.8] } },
    { "type": "Feature", "properties": { "name": "HMNB Devonport", "country": "UK", "kind": "naval", "imp": 4 }, "geometry": { "type": "Point", "coordinates": [-4.18, 50.39] } },
    { "type": "Feature", "properties": { "name": "RAF Brize Norton", "country": "UK", "kind": "airbase", "imp": 4 }, "geometry": { "type": "Point", "coordinates": [-1.5836, 51.75] } },
    { "type": "Feature", "properties": { "name": "RAF Akrotiri", "country": "Cyprus (UK)", "kind": "airbase", "imp": 4 }, "geometry": { "type": "Point", "coordinates": [32.988, 34.59] } },
    { "type": "Feature", "properties": { "name": "Gibraltar Naval Base", "country": "Gibraltar (UK)", "kind": "naval", "imp": 3 }, "geometry": { "type": "Point", "coordinates": [-5.353, 36.143] } },
    { "type": "Feature", "properties": { "name": "Toulon Naval Base", "country": "France", "kind": "naval", "imp": 5 }, "geometry": { "type": "Point", "coordinates": [5.9, 43.11] } },
    { "type": "Feature", "properties": { "name": "Île Longue (SSBN)", "country": "France", "kind": "naval", "imp": 5 }, "geometry": { "type": "Point", "coordinates": [-4.52, 48.3] } },
    { "type": "Feature", "properties": { "name": "Brest Naval Base", "country": "France", "kind": "naval", "imp": 4 }, "geometry": { "type": "Point", "coordinates": [-4.495, 48.36] } },
    { "type": "Feature", "properties": { "name": "BA 125 Istres", "country": "France", "kind": "airbase", "imp": 3 }, "geometry": { "type": "Point", "coordinates": [4.92, 43.52] } },
    { "type": "Feature", "properties": { "name": "SHAPE / NATO (Mons)", "country": "Belgium", "kind": "command", "imp": 4 }, "geometry": { "type": "Point", "coordinates": [3.97, 50.5] } },
    { "type": "Feature", "properties": { "name": "Redzikowo (Aegis Ashore)", "country": "Poland", "kind": "airbase", "imp": 4 }, "geometry": { "type": "Point", "coordinates": [17.07, 54.48] } },
    { "type": "Feature", "properties": { "name": "Deveselu (Aegis Ashore)", "country": "Romania", "kind": "airbase", "imp": 4 }, "geometry": { "type": "Point", "coordinates": [24.42, 44.07] } },
    { "type": "Feature", "properties": { "name": "Severomorsk (Northern Fleet)", "country": "Russia", "kind": "naval", "imp": 5 }, "geometry": { "type": "Point", "coordinates": [33.42, 69.07] } },
    { "type": "Feature", "properties": { "name": "Gadzhiyevo (SSBN)", "country": "Russia", "kind": "naval", "imp": 5 }, "geometry": { "type": "Point", "coordinates": [33.33, 69.25] } },
    { "type": "Feature", "properties": { "name": "Baltiysk / Kaliningrad", "country": "Russia", "kind": "naval", "imp": 4 }, "geometry": { "type": "Point", "coordinates": [19.91, 54.65] } },
    { "type": "Feature", "properties": { "name": "Sevastopol (Black Sea Fleet)", "country": "Russia/Ukraine", "kind": "naval", "imp": 5 }, "geometry": { "type": "Point", "coordinates": [33.525, 44.616] } },
    { "type": "Feature", "properties": { "name": "Novorossiysk NB", "country": "Russia", "kind": "naval", "imp": 4 }, "geometry": { "type": "Point", "coordinates": [37.79, 44.69] } },
    { "type": "Feature", "properties": { "name": "Vladivostok (Pacific Fleet)", "country": "Russia", "kind": "naval", "imp": 5 }, "geometry": { "type": "Point", "coordinates": [131.9, 43.1] } },
    { "type": "Feature", "properties": { "name": "Rybachiy (SSBN, Kamchatka)", "country": "Russia", "kind": "naval", "imp": 5 }, "geometry": { "type": "Point", "coordinates": [158.48, 52.92] } },
    { "type": "Feature", "properties": { "name": "Engels-2 (strategic bombers)", "country": "Russia", "kind": "airbase", "imp": 5 }, "geometry": { "type": "Point", "coordinates": [46.21, 51.48] } },
    { "type": "Feature", "properties": { "name": "Olenya AB (Tu-160/95)", "country": "Russia", "kind": "airbase", "imp": 4 }, "geometry": { "type": "Point", "coordinates": [33.463, 68.152] } },
    { "type": "Feature", "properties": { "name": "Plesetsk Cosmodrome", "country": "Russia", "kind": "space", "imp": 4 }, "geometry": { "type": "Point", "coordinates": [40.68, 62.93] } },
    { "type": "Feature", "properties": { "name": "Khmeimim AB", "country": "Syria (RU)", "kind": "airbase", "imp": 4 }, "geometry": { "type": "Point", "coordinates": [35.948, 35.401] } },
    { "type": "Feature", "properties": { "name": "Tartus Naval Base", "country": "Syria (RU)", "kind": "naval", "imp": 4 }, "geometry": { "type": "Point", "coordinates": [35.877, 34.895] } },
    { "type": "Feature", "properties": { "name": "Yulin NB (Hainan, SSBN)", "country": "China", "kind": "naval", "imp": 5 }, "geometry": { "type": "Point", "coordinates": [109.54, 18.227] } },
    { "type": "Feature", "properties": { "name": "Qingdao NB (North Sea Fleet)", "country": "China", "kind": "naval", "imp": 4 }, "geometry": { "type": "Point", "coordinates": [120.33, 36.07] } },
    { "type": "Feature", "properties": { "name": "Zhanjiang (South Sea Fleet HQ)", "country": "China", "kind": "naval", "imp": 4 }, "geometry": { "type": "Point", "coordinates": [110.4, 21.2] } },
    { "type": "Feature", "properties": { "name": "Ningbo-Zhoushan (East Sea Fleet)", "country": "China", "kind": "naval", "imp": 4 }, "geometry": { "type": "Point", "coordinates": [122.0, 29.95] } },
    { "type": "Feature", "properties": { "name": "PLA Support Base Djibouti", "country": "China", "kind": "naval", "imp": 5 }, "geometry": { "type": "Point", "coordinates": [43.064, 11.591] } },
    { "type": "Feature", "properties": { "name": "Fiery Cross Reef", "country": "China (Spratly)", "kind": "airbase", "imp": 4 }, "geometry": { "type": "Point", "coordinates": [112.886, 9.549] } },
    { "type": "Feature", "properties": { "name": "Subi Reef", "country": "China (Spratly)", "kind": "airbase", "imp": 3 }, "geometry": { "type": "Point", "coordinates": [114.09, 10.92] } },
    { "type": "Feature", "properties": { "name": "Mischief Reef", "country": "China (Spratly)", "kind": "airbase", "imp": 3 }, "geometry": { "type": "Point", "coordinates": [115.54, 9.9] } },
    { "type": "Feature", "properties": { "name": "Woody Island (Paracels)", "country": "China", "kind": "airbase", "imp": 3 }, "geometry": { "type": "Point", "coordinates": [112.34, 16.83] } },
    { "type": "Feature", "properties": { "name": "Jiuquan Satellite Launch", "country": "China", "kind": "space", "imp": 3 }, "geometry": { "type": "Point", "coordinates": [100.29, 40.96] } },
    { "type": "Feature", "properties": { "name": "INS Kadamba (Karwar)", "country": "India", "kind": "naval", "imp": 4 }, "geometry": { "type": "Point", "coordinates": [74.12, 14.82] } },
    { "type": "Feature", "properties": { "name": "Visakhapatnam (Eastern, SSBN)", "country": "India", "kind": "naval", "imp": 5 }, "geometry": { "type": "Point", "coordinates": [83.3, 17.7] } },
    { "type": "Feature", "properties": { "name": "Mumbai Naval Dockyard", "country": "India", "kind": "naval", "imp": 4 }, "geometry": { "type": "Point", "coordinates": [72.84, 18.92] } },
    { "type": "Feature", "properties": { "name": "Ambala AFS", "country": "India", "kind": "airbase", "imp": 3 }, "geometry": { "type": "Point", "coordinates": [76.82, 30.37] } },
    { "type": "Feature", "properties": { "name": "A&N Command (Port Blair)", "country": "India", "kind": "joint", "imp": 3 }, "geometry": { "type": "Point", "coordinates": [92.73, 11.64] } },
    { "type": "Feature", "properties": { "name": "Karachi Naval Base", "country": "Pakistan", "kind": "naval", "imp": 4 }, "geometry": { "type": "Point", "coordinates": [66.97, 24.81] } },
    { "type": "Feature", "properties": { "name": "Gwadar", "country": "Pakistan", "kind": "naval", "imp": 4 }, "geometry": { "type": "Point", "coordinates": [62.329, 25.121] } },
    { "type": "Feature", "properties": { "name": "PAF Mushaf (Sargodha)", "country": "Pakistan", "kind": "airbase", "imp": 4 }, "geometry": { "type": "Point", "coordinates": [72.67, 32.05] } },
    { "type": "Feature", "properties": { "name": "Nevatim AB", "country": "Israel", "kind": "airbase", "imp": 4 }, "geometry": { "type": "Point", "coordinates": [35.01, 31.21] } },
    { "type": "Feature", "properties": { "name": "Palmachim AB", "country": "Israel", "kind": "airbase", "imp": 4 }, "geometry": { "type": "Point", "coordinates": [34.69, 31.9] } },
    { "type": "Feature", "properties": { "name": "Bandar Abbas NB", "country": "Iran", "kind": "naval", "imp": 4 }, "geometry": { "type": "Point", "coordinates": [56.27, 27.15] } },
    { "type": "Feature", "properties": { "name": "Prince Sultan AB", "country": "Saudi Arabia", "kind": "airbase", "imp": 3 }, "geometry": { "type": "Point", "coordinates": [47.58, 24.06] } },
    { "type": "Feature", "properties": { "name": "Pine Gap", "country": "Australia", "kind": "command", "imp": 5 }, "geometry": { "type": "Point", "coordinates": [133.737, -23.799] } },
    { "type": "Feature", "properties": { "name": "HMAS Stirling", "country": "Australia", "kind": "naval", "imp": 4 }, "geometry": { "type": "Point", "coordinates": [115.68, -32.23] } },
    { "type": "Feature", "properties": { "name": "RAAF Tindal", "country": "Australia", "kind": "airbase", "imp": 3 }, "geometry": { "type": "Point", "coordinates": [132.38, -14.52] } },
    { "type": "Feature", "properties": { "name": "Changi Naval Base", "country": "Singapore", "kind": "naval", "imp": 4 }, "geometry": { "type": "Point", "coordinates": [103.99, 1.32] } },
    { "type": "Feature", "properties": { "name": "Naval Base Simon's Town", "country": "South Africa", "kind": "naval", "imp": 3 }, "geometry": { "type": "Point", "coordinates": [18.433, -34.192] } },
    { "type": "Feature", "properties": { "name": "Naval Base Rio de Janeiro", "country": "Brazil", "kind": "naval", "imp": 3 }, "geometry": { "type": "Point", "coordinates": [-43.13, -22.88] } },
    { "type": "Feature", "properties": { "name": "Bagram Airfield (former US)", "country": "Afghanistan", "kind": "airbase", "imp": 2 }, "geometry": { "type": "Point", "coordinates": [69.265, 34.946] } }
  ]
}
